County,State,Average Temperature,Latitude (generated),Longitude (generated),Year,Month
Wright,Iowa,72.4,42.7343,-93.7351,2016,7
Worth,Iowa,70.5,43.3787,-93.2608,2016,7
Woodbury,Iowa,76,42.3866,-96.0407,2016,7
Winneshiek,Iowa,72.35,43.2932,-91.8426,2016,7
Winnebago,Iowa,70.74,43.3803,-93.7342,2016,7
Webster,Iowa,71.42,42.4344,-94.1647,2016,7
Wayne,Iowa,73.68,40.7372,-93.327,2016,7
Washington,Iowa,73.55,41.3304,-91.7158,2016,7
Warren,Iowa,74.42,41.3336,-93.5592,2016,7
Wapello,Iowa,73.42,41.0308,-92.4096,2016,7
Van Buren,Iowa,74.32,40.7517,-91.9485,2016,7
Union,Iowa,73.18,41.0298,-94.2429,2016,7
Taylor,Iowa,74.58,40.734,-94.7,2016,7
Tama,Iowa,71.94,42.0847,-92.533,2016,7
Story,Iowa,74.21,42.037,-93.4652,2016,7
Sioux,Iowa,73,43.0847,-96.1572,2016,7
Shelby,Iowa,73.32,41.6806,-95.3254,2016,7
Scott,Iowa,75.19,41.6065,-90.62,2016,7
Sac,Iowa,71.85,42.3887,-95.0899,2016,7
Ringgold,Iowa,73.82,40.7361,-94.2434,2016,7
Poweshiek,Iowa,71.89,41.6853,-92.5332,2016,7
Pottawattamie,Iowa,73.56,41.3347,-95.5518,2016,7
Polk,Iowa,73.35,41.6673,-93.5815,2016,7
Pocahontas,Iowa,73.02,42.7329,-94.6786,2016,7
Plymouth,Iowa,73,42.7356,-96.2455,2016,7
Palo Alto,Iowa,73.06,43.0818,-94.6781,2016,7
Page,Iowa,72.42,40.7362,-95.1569,2016,7
Osceola,Iowa,71.58,43.3805,-95.624,2016,7
Obrien,Iowa,73.97,43.0766,-95.6242,2016,7
Muscatine,Iowa,74.44,41.47,-91.0769,2016,7
Montgomery,Iowa,74.95,41.0305,-95.1562,2016,7
Monroe,Iowa,73.21,41.0265,-92.8691,2016,7
Monona,Iowa,73.35,42.0396,-95.9525,2016,7
Mitchell,Iowa,71.11,43.3501,-92.7891,2016,7
Mills,Iowa,74.79,41.0311,-95.6218,2016,7
Marshall,Iowa,72.68,42.0363,-92.9991,2016,7
Marion,Iowa,74.06,41.3353,-93.0995,2016,7
Mahaska,Iowa,73.95,41.3323,-92.6409,2016,7
Madison,Iowa,72.66,41.3347,-94.0158,2016,7
Lyon,Iowa,72.32,43.3789,-96.1922,2016,7
Lucas,Iowa,72.63,41.0271,-93.3276,2016,7
Louisa,Iowa,73.95,41.2473,-91.2998,2016,7
Linn,Iowa,74.87,42.0798,-91.5998,2016,7
Lee,Iowa,75.5,40.5953,-91.5386,2016,7
Kossuth,Iowa,71.21,43.2073,-94.2065,2016,7
Keokuk,Iowa,74.03,41.3368,-92.1791,2016,7
Jones,Iowa,71.69,42.1213,-91.1314,2016,7
Johnson,Iowa,73.31,41.645,-91.5998,2016,7
Jefferson,Iowa,73.73,41.036,-91.9487,2016,7
Jasper,Iowa,73.47,41.6847,-93.0574,2016,7
Jackson,Iowa,71.77,42.2091,-90.6306,2016,7
Iowa,Iowa,73.32,41.6805,-92.067,2016,7
Ida,Iowa,72.47,42.3883,-95.4964,2016,7
Humboldt,Iowa,72.39,42.7806,-94.2073,2016,7
Howard,Iowa,71.61,43.3561,-92.3172,2016,7
Henry,Iowa,73.11,40.9933,-91.5447,2016,7
Harrison,Iowa,74.6,41.6861,-95.84,2016,7
Hardin,Iowa,72.4,42.376,-93.2326,2016,7
Hancock,Iowa,71.32,43.0894,-93.7341,2016,7
Hamilton,Iowa,71.53,42.3873,-93.6974,2016,7
Guthrie,Iowa,73.48,41.6815,-94.5123,2016,7
Grundy,Iowa,72,42.3803,-92.7681,2016,7
Greene,Iowa,73.13,42.0384,-94.397,2016,7
Fremont,Iowa,74.32,40.7414,-95.6361,2016,7
Franklin,Iowa,72.56,42.7302,-93.2624,2016,7
Floyd,Iowa,71.5,43.0597,-92.7887,2016,7
Fayette,Iowa,71.32,42.8639,-91.8442,2016,7
Emmet,Iowa,71.23,43.3757,-94.6784,2016,7
Dubuque,Iowa,71.71,42.485,-90.8953,2016,7
Dickinson,Iowa,71.42,43.3759,-95.1509,2016,7
Des Moines,Iowa,74.53,40.885,-91.1962,2016,7
Delaware,Iowa,71.1,42.471,-91.3709,2016,7
Decatur,Iowa,76.29,40.7401,-93.786,2016,7
Davis,Iowa,74,40.7369,-92.4085,2016,7
Dallas,Iowa,73.92,41.6806,-94.0474,2016,7
Crawford,Iowa,72.03,42.0372,-95.3818,2016,7
Clinton,Iowa,71.77,41.8816,-90.5324,2016,7
Clayton,Iowa,70.11,42.8621,-91.3526,2016,7
Clay,Iowa,73.02,43.0784,-95.1509,2016,7
Clarke,Iowa,72.89,41.0282,-93.7857,2016,7
Chickasaw,Iowa,70.37,43.0488,-92.3177,2016,7
Cherokee,Iowa,72.97,42.742,-95.6238,2016,7
Cerro Gordo,Iowa,71.48,43.0793,-93.2608,2016,7
Cedar,Iowa,73.89,41.7722,-91.1322,2016,7
Cass,Iowa,72.5,41.335,-94.9277,2016,7
Carroll,Iowa,72.92,42.0384,-94.8606,2016,7
Calhoun,Iowa,72.52,42.3806,-94.6272,2016,7
Butler,Iowa,71.77,42.7342,-92.7904,2016,7
Buena Vista,Iowa,72.15,42.7359,-95.1507,2016,7
Buchanan,Iowa,71.27,42.4728,-91.845,2016,7
Bremer,Iowa,72.27,42.7701,-92.3182,2016,7
Boone,Iowa,72.63,42.037,-93.9317,2016,7
Black Hawk,Iowa,72.77,42.4762,-92.318,2016,7
Benton,Iowa,72.5,42.0802,-92.067,2016,7
Audubon,Iowa,71.65,41.6815,-94.9186,2016,7
Appanoose,Iowa,73.98,40.743,-92.868,2016,7
Allamakee,Iowa,70.21,43.2887,-91.3442,2016,7
Adams,Iowa,73.45,41.0282,-94.6995,2016,7
Adair,Iowa,73.4,41.3297,-94.4707,2016,7